{
    "type": "FeatureCollection",
    "name": "Lək̓ʷaŋən Təŋəxʷ",
    "features": [
        {
            "type": "Feature",
            "properties": {
                "name": "p̓əlác̓əs",
                "audio": {
                    "src": "https://fv-media-uploads.s3.amazonaws.com/lekwungen/1efb68c8-25b5-484c-9b9b-c88f0637d7d7/place_p%C9%99la%C4%8D%C9%99s.mp3",
                    "copyright": "©2024 Elmer George"
                },
                "sources": null
            },
            "geometry": {
                "type": "Point",
                "coordinates": [
                    -123.375833,
                    48.425791
                ]
            }
        },
        "sources": null
      },
      "geometry": {
        "coordinates": [
          -123.375833,
          48.425791
        ],
        "type": "Point"
      }
    },
    {
      "type": "Feature",
      "properties": {
        "name": "mək̓ʷəqs",
        "description": "Reef net site",
        "sources": "[\"https://fishing-app.gpsnauticalcharts.com/\"]",
        "category": "fishing"
      },
      "geometry": {
        "coordinates": [
          -123.412467,
          48.416216
        ],
        "type": "Point"
      },
      "id": 7
    },
    {
      "type": "Feature",
      "properties": {
        "name": null,
        "settler name": "\"The Bay immediately east of Clover Point\"",
        "sources": [
          "https://www.rcaanc-cirnac.gc.ca/eng/1100100029052/1581515763202#sweng"
        ],
        "category": "Douglas Treaties"
      },
      "geometry": {
        "coordinates": [
          -123.3366575,
          48.408738
        ],
        "type": "Point"
      }
    },
    {
      "type": "Feature",
      "properties": {
        "name": null,
        "settler name": "\"Fountain Ridge\"",
        "sources": null,
        "category": "Douglas Treaties"
      },
      "geometry": {
        "coordinates": [
          -123.3484999,
          48.4314963
        ],
        "type": "Point"
      }
    },
    {
      "type": "Feature",
      "properties": {
        "name": null,
        "settler name": "Island of the Dead (Halkett Island)",
        "sources": null
      },
      "geometry": {
        "coordinates": [
          -123.3814043,
          48.4391248
        ],
        "type": "Point"
      }
    },
    {
      "type": "Feature",
      "properties": {
        "name": "sč̓əmásən",
        "settler name": "The Inlet of Camoson, Victoria Harbour",
        "sources": ["https://fishing-app.gpsnauticalcharts.com/"],
        "category": ""
      },
      "geometry": {
        "coordinates": [
          -123.393684,
          48.417817
        ],
        "type": "Point"
      },
      "id": 11
    },
    {
      "type": "Feature",
      "properties": {
        "name": "pəl̓qʷíc̓əŋ",
        "description": "\"Place of Ghosts\", from spəl̓qʷíc̓əʔ = ghost",
        "settler name": "Craigflower Creek",
        "category": "river"
      },
      "geometry": {
        "coordinates": [
          -123.43606588276239,
          48.45897959610045
        ],
        "type": "Point"
      },
      "id": 12
    },
    {
      "type": "Feature",
      "properties": {
        "name": "x̣əláŋiqən",
        "settler name": "Colquitz Creek",
        "description": "\"Stream that tumbles down\"",
        "sources": ["Elliott, Dave. *Saltwater People*. Revised ed., edited by Janet Poth, School District No. 63 (Saanich), 1990."]
      },
      "geometry": {
        "coordinates": [
          -123.40130137483393,
          48.4549620506418
        ],
        "type": "Point"
      },
      "id": 13
    },
    {
      "type": "Feature",
      "properties": {
        "name": "qállə",
        "description": "\"Spring water gushing down the beach\"",
        "category": "village"
      },
      "geometry": {
        "coordinates": [
          -123.43034716979454,
          48.444696031347604
        ],
        "type": "Point"
      },
      "id": 14
    },
    {
      "type": "Feature",
      "properties": {
        "name": "sqəŋínəs",
        "settler name": "Discovery Island",
        "description": "Name of the island and the people who lived there."
      },
      "geometry": {
        "coordinates": [
          -123.23768277859314,
          48.42602374878135
        ],
        "type": "Point"
      },
      "id": 15
    },
    {
      "type": "Feature",
      "properties": {
        "name": "míqən",
        "description": "\"Warmed by the sun\""
      },
      "geometry": {
        "coordinates": [
          -123.36483300513848,
          48.409127438148914
        ],
        "type": "Point"
      },
      "id": 16
    },
    {
      "type": "Feature",
      "properties": {
        "description": "Klallam and xʷsépsəm village from 1847 - 1855",
        "sources": ["Keddie, Grant. \"The Victoria Legislative Building Properties and Indigenous Peoples.\" *Grant Keddie*, 21 Feb. 2023, grantkeddie.com/2023/02/the-victoria-legislative-building-properties-and-indigenous-peoples/. Accessed 26 Nov. 2025."],
        "category": "village"
      },
      "geometry": {
        "coordinates": [
          -123.37548474388473,
          48.4228284097548
        ],
        "type": "Point"
      },
      "id": 17
    }
  ]
}